City_ID,City,Lat,Lng,Max Temp,Humidity,Cloudiness,Wind Speed,Country,Date
0,kone,-21.0595,164.8658,63.93,72,49,3.85,NC,1690044029
1,tandalti,13.0167,31.8667,93.16,35,88,7.02,SD,1690044029
2,sturgis,41.7992,-85.4192,81.07,43,0,3.44,US,1690043888
3,kerikeri,-35.2268,173.9474,50.92,93,100,1.01,NZ,1690044030
4,fergus falls,46.283,-96.0776,79.18,64,0,6.91,US,1690043949
5,iqaluit,63.7506,-68.5145,42.53,93,75,6.91,CA,1690044030
6,uliastay,47.7417,96.8444,56.37,67,99,3.04,MN,1690044030
7,iskateley,67.6803,53.1512,59.65,89,94,14.65,RU,1690044031
8,assai,-23.3733,-50.8414,76.86,40,0,9.6,BR,1690044031
9,port-aux-francais,-49.35,70.2167,37.51,79,87,34.92,TF,1690044031
10,coquimbo,-29.9533,-71.3436,67.73,52,0,6.91,CL,1690043904
11,cabo san lucas,22.8909,-109.9124,96.19,58,0,3.44,MX,1690043884
12,bethel,41.3712,-73.414,81.9,59,20,11.5,US,1690044032
13,kupang,-10.1667,123.5833,74.17,77,55,9.73,ID,1690044032
14,knyaze-volkonskoye,48.4642,135.4567,70.14,51,100,1.45,RU,1690044032
15,hawaiian paradise park,19.5933,-154.9731,74.03,99,100,0.0,US,1690044032
16,wanning,18.8003,110.3967,81.05,85,8,2.8,CN,1690044033
17,magadan,59.5667,150.8,56.53,97,100,2.57,RU,1690044033
18,tamanrasset,22.785,5.5228,96.71,9,20,10.36,DZ,1690044033
19,anadyr,64.75,177.4833,55.9,87,75,4.47,RU,1690044034
20,grytviken,-54.2811,-36.5092,23.59,90,100,7.92,GS,1690044034
21,mount gambier,-37.8333,140.7667,50.18,63,98,8.86,AU,1690043842
22,ola,59.5833,151.2833,57.15,95,98,3.27,RU,1690044035
23,port saint john's,-31.6229,29.5448,66.7,69,74,6.04,ZA,1690044035
24,adamstown,-25.066,-130.1015,69.8,61,80,14.36,PN,1690044035
25,avarua,-21.2078,-159.775,71.65,88,100,13.8,CK,1690044036
26,edinburgh of the seven seas,-37.0676,-12.3116,55.18,74,12,21.07,SH,1690044036
27,tacuarembo,-31.7333,-55.9833,78.8,53,99,22.66,UY,1690044026
28,talnakh,69.4865,88.3972,65.21,88,100,5.46,RU,1690044036
29,papatowai,-46.5619,169.4708,47.5,96,87,9.08,NZ,1690044037
30,tiassale,5.8983,-4.8283,79.66,78,89,6.78,CI,1690044037
31,waitangi,-43.9535,-176.5597,51.82,96,100,5.99,NZ,1690044037
32,ushuaia,-54.8,-68.3,31.66,86,40,10.36,AR,1690043875
33,badger,64.8,-147.5333,75.13,69,0,3.44,US,1690044038
34,aguas vermelhas,-15.7472,-41.46,78.19,39,9,8.68,BR,1690044038
35,lihue,21.9789,-159.3672,76.59,89,100,16.11,US,1690044038
36,prineville,44.2999,-120.8345,78.37,36,0,0.0,US,1690044038
37,selfoss,63.9331,-20.9971,59.04,71,97,6.69,IS,1690044038
38,alaghsas,17.0187,8.0168,103.89,27,20,9.22,NE,1690044039
39,bengkulu,-3.8004,102.2655,76.5,91,55,4.41,ID,1690044039
40,klerksdorp,-26.8521,26.6667,57.49,40,10,7.87,ZA,1690044039
41,preobrazheniye,42.9019,133.9064,62.73,97,76,4.52,RU,1690044040
42,constantia,44.1833,28.65,92.08,46,2,10.36,RO,1690044040
43,college,64.8569,-147.8028,75.2,69,40,3.44,US,1690043938
44,smithers,54.7804,-127.1743,57.52,88,75,5.75,CA,1690044040
45,holualoa,19.6228,-155.9522,77.86,80,75,4.61,US,1690044040
46,uturoa,-16.7333,-151.4333,75.72,74,100,15.35,PF,1690044041
47,happy valley-goose bay,53.3168,-60.3315,73.71,64,100,9.22,CA,1690044041
48,damboa,11.156,12.7576,80.83,72,90,10.18,NG,1690044041
49,afaahiti,-17.75,-149.2833,69.67,68,81,10.92,PF,1690044041
50,thompson,55.7435,-97.8558,60.96,59,75,12.66,CA,1690044041
51,nabire,-3.3667,135.4833,75.36,93,72,4.29,ID,1690044041
52,blackmans bay,-43.0167,147.3167,48.72,87,73,3.76,AU,1690044042
53,jamestown,42.097,-79.2353,78.03,55,40,6.91,US,1690044032
54,albany,42.6001,-73.9662,78.03,60,0,5.01,US,1690044042
55,sechura,-5.5569,-80.8222,79.36,58,7,7.31,PE,1690044042
56,wanda,-25.9693,-54.5697,84.61,39,51,9.28,AR,1690044042
57,kununurra,-15.7667,128.7333,73.38,33,0,10.36,AU,1690044042
58,cozumel,20.5083,-86.9458,89.67,81,40,10.36,MX,1690044043
59,kingston,17.997,-76.7936,90.55,70,40,20.71,JM,1690043954
60,dul'durga,50.6761,113.5931,54.32,76,20,3.49,RU,1690044043
61,thunder bay,48.4001,-89.3168,75.18,60,75,3.44,CA,1690044043
62,margaret river,-33.95,115.0667,53.08,82,0,6.44,AU,1690044043
63,beoumi,7.6736,-5.5764,79.95,81,82,6.55,CI,1690044043
64,ayacucho,-13.1583,-74.2239,64.26,27,0,4.61,PE,1690043795
65,gamba,-2.65,10.0,73.06,78,60,9.35,GA,1690044044
66,mogok,22.9167,96.5,68.45,96,100,1.97,MM,1690044044
67,shagonar,51.5333,92.8,62.6,92,100,5.5,RU,1690044044
68,port mathurin,-19.6833,63.4167,74.03,70,1,23.22,MU,1690044044
69,rajgurunagar,18.8667,73.9,71.91,95,100,11.63,IN,1690044045
70,ta`u,-14.2336,-169.5144,80.94,79,56,8.86,AS,1690044045
71,west island,-12.1568,96.8225,75.18,88,75,12.66,CC,1690044045
72,ribeira grande,38.5167,-28.7,75.6,78,40,4.61,PT,1690044045
73,san antonio de pale,-1.4014,5.6325,73.6,77,44,11.16,GQ,1690044045
74,yangjiang,21.85,111.9667,79.34,87,60,2.33,CN,1690044046
75,wailua homesteads,22.0669,-159.378,75.99,89,100,16.11,US,1690044046
76,kalemie,-5.9475,29.1947,73.96,56,0,2.84,CD,1690044046
77,tafresh,34.692,50.013,83.84,14,19,17.76,IR,1690044046
78,palmas,-10.2128,-48.3603,89.47,33,0,10.36,BR,1690044046
79,mountain home,43.133,-115.6912,81.43,24,0,0.0,US,1690043924
80,olonkinbyen,70.9221,-8.7187,44.08,72,100,4.97,SJ,1690044046
81,tarauaca,-8.1614,-70.7656,93.85,31,0,3.2,BR,1690044047
82,barabinsk,55.3571,78.357,61.14,89,100,9.82,RU,1690044047
83,alice springs,-23.7,133.8833,36.95,75,0,5.75,AU,1690044047
84,chonchi,-42.6128,-73.8092,48.11,67,99,4.74,CL,1690044047
85,port lincoln,-34.7333,135.8667,53.06,65,33,15.32,AU,1690043776
86,bilibino,68.0546,166.4372,55.51,77,89,4.21,RU,1690044047
87,udachny,66.4167,112.4,70.45,52,38,10.42,RU,1690044048
88,palikir - national government center,6.9248,158.1611,75.94,88,100,0.0,FM,1690044048
89,puerto natales,-51.7236,-72.4875,32.52,76,28,3.74,CL,1690044048
90,corte,42.25,9.25,86.4,31,4,2.55,FR,1690044048
91,atafu village,-8.5421,-172.5159,83.01,70,2,7.61,TK,1690044048
92,dompu,-8.5356,118.4622,69.3,90,62,3.67,ID,1690044049
93,belmonte,-15.8631,-38.8828,73.98,86,63,9.69,BR,1690044049
94,ravar,31.2656,56.8055,91.33,11,24,3.49,IR,1690044049
95,tiksi,71.6872,128.8694,46.15,88,58,6.42,RU,1690044049
96,vylkove,45.4021,29.586,79.12,68,11,5.1,UA,1690044049
97,changleng,28.7,115.8167,78.24,95,100,3.33,CN,1690044049
98,cedeira,43.6797,-8.0209,70.0,65,98,6.44,ES,1690044050
99,abaza,52.655,90.0928,57.29,96,100,4.68,RU,1690044050
100,st. john's,47.5649,-52.7093,81.79,65,20,17.27,CA,1690043897
101,fort mcmurray,56.7268,-111.381,69.39,73,0,0.0,CA,1690044050
102,altamira,-3.2033,-52.2064,89.69,43,40,5.75,BR,1690044050
103,zag,46.9441,99.165,59.63,64,100,4.07,MN,1690044050
104,tshela,-4.9833,12.9333,77.72,63,47,3.62,CD,1690044051
105,shendi,16.6915,33.4341,103.95,10,74,7.63,SD,1690044051
106,port elizabeth,-33.918,25.5701,59.29,88,0,12.66,ZA,1690044051
107,carnarvon,-24.8667,113.6333,61.41,36,0,15.17,AU,1690044051
108,barranca,-10.75,-77.7667,70.74,70,40,9.01,PE,1690044051
109,tobol'sk,58.2,68.2667,62.15,79,68,6.46,RU,1690044052
110,labytnangi,66.6572,66.4183,65.48,88,100,11.03,RU,1690044052
111,dudinka,69.4058,86.1778,65.62,91,90,11.68,RU,1690044052
112,tura,25.5198,90.2201,76.41,96,88,4.5,IN,1690044052
113,newman,37.3138,-121.0208,84.54,10,42,4.03,US,1690044052
114,qaqortoq,60.7167,-46.0333,50.16,80,94,4.21,GL,1690044052
115,yellowknife,62.456,-114.3525,66.72,63,75,8.05,CA,1690044053
116,nova sintra,14.8667,-24.7167,73.65,78,22,19.26,CV,1690044053
117,hamilton,39.1834,-84.5333,83.08,56,0,4.61,US,1690044053
118,utrik,11.2278,169.8474,82.38,75,83,17.52,MH,1690044053
119,brigantine,39.4101,-74.3646,84.04,60,0,6.91,US,1690044053
120,fort stockton,30.894,-102.8793,88.16,39,0,10.36,US,1690044053
121,christchurch,-43.5333,172.6333,51.91,92,100,9.22,NZ,1690043997
122,delacombe,-37.5891,143.8147,42.75,95,71,1.01,AU,1690044054
123,grantsville,40.5999,-112.4644,95.95,26,0,5.01,US,1690044054
124,petropavlovsk-kamchatsky,53.0452,158.6483,55.99,94,0,6.71,RU,1690044054
125,montlouis-sur-loire,47.3833,0.8333,79.07,39,100,17.27,FR,1690044054
126,alofi,-19.0595,-169.9187,73.29,88,27,13.44,NU,1690044054
127,whitehorse,60.7161,-135.0538,58.8,87,75,4.61,CA,1690044055
128,saldanha,-33.0117,17.9442,57.25,77,0,7.31,ZA,1690044055
129,bredasdorp,-34.5322,20.0403,52.32,63,15,7.0,ZA,1690044055
130,nadym,65.5333,72.5167,69.08,69,49,3.65,RU,1690044056
131,kati,12.7441,-8.0726,92.61,88,79,24.7,ML,1690044056
132,la'ie,21.6477,-157.9253,80.56,81,69,13.58,US,1690044056
133,vilyuysk,63.7553,121.6247,62.53,93,73,4.72,RU,1690044056
134,brookings,44.3114,-96.7984,79.14,75,70,9.01,US,1690044030
135,greymouth,-42.4667,171.2,40.42,89,99,5.26,NZ,1690044056
136,susuman,62.7833,148.1667,57.9,95,100,2.15,RU,1690044057
137,punta arenas,-53.15,-70.9167,34.77,70,19,10.63,CL,1690044057
138,port alfred,-33.5906,26.891,59.18,82,94,1.01,ZA,1690044057
139,vila velha,-20.3297,-40.2925,73.35,80,75,9.22,BR,1690043948
140,richmond,37.5538,-77.4603,80.04,68,75,6.91,US,1690043603
141,katsuura,35.1333,140.3,72.48,92,17,7.58,JP,1690044058
142,nagqu,31.5,92.0,43.93,92,100,7.14,CN,1690044058
143,nar'yan-mar,67.6713,53.087,59.18,90,94,14.54,RU,1690044058
144,mahibadhoo,3.7833,72.9667,83.53,74,40,8.41,MV,1690044058
145,tralee,52.2704,-9.7026,61.05,94,100,13.8,IE,1690044059
146,cape canaveral,28.4058,-80.6048,96.1,63,0,13.8,US,1690043924
147,centerville,39.6284,-84.1594,81.73,58,20,3.44,US,1690044059
148,souillac,-20.5167,57.5167,73.78,78,40,14.97,MU,1690044059
149,klyuchi,52.2667,79.1667,64.65,65,44,5.08,RU,1690044059
150,mtwango,-9.0167,34.8,55.94,62,12,6.78,TZ,1690044060
151,tolanaro,-25.0319,46.9987,68.07,88,40,13.8,MG,1690044060
152,choibalsan,48.0667,114.5,55.94,78,89,6.87,MN,1690044060
153,cidreira,-30.1811,-50.2056,70.5,71,85,9.48,BR,1690044060
154,invercargill,-46.4,168.35,42.03,92,46,4.9,NZ,1690044061
155,moussoro,13.6408,16.4901,99.73,29,79,3.89,TD,1690044061
156,hirara,24.8,125.2833,84.06,89,20,11.5,JP,1690044061
157,terlizzi,41.1311,16.5453,93.22,51,0,6.91,IT,1690044061
158,rosarito,32.3333,-117.0333,70.72,68,16,6.29,MX,1690044061
159,keflavik,64.0049,-22.5624,57.11,71,100,8.05,IS,1690044062
160,vernon,50.2581,-119.2691,80.92,28,9,2.3,CA,1690044014
161,kavaratti,10.5669,72.642,82.67,82,78,19.6,IN,1690044062
162,stephenville,32.2207,-98.2023,90.86,43,0,8.05,US,1690044062
163,saudarkrokur,65.7461,-19.6394,51.75,72,80,6.46,IS,1690044062
164,lebu,-37.6167,-73.65,53.22,79,30,8.81,CL,1690044062
165,yatou,37.15,122.3833,74.68,96,16,4.14,CN,1690044063
166,el granada,37.5027,-122.4694,79.86,74,100,6.91,US,1690044063
167,wau,7.7029,27.9953,75.52,86,91,4.34,SS,1690044063
168,chibougamau,49.9168,-74.3659,62.22,88,100,7.2,CA,1690044028
169,aasiaat,68.7098,-52.8699,39.56,99,100,4.74,GL,1690044063
170,santa elena de uairen,4.6167,-61.1333,79.79,59,24,8.19,VE,1690044064
171,verdun,49.25,5.3333,84.81,33,61,11.72,FR,1690043807
172,opuwo,-18.0607,13.84,73.94,19,0,6.58,NA,1690044064
173,fauske,67.2588,15.3918,57.94,97,100,3.09,NO,1690044064
174,shizunai-furukawacho,42.3339,142.3669,63.9,90,72,6.35,JP,1690044064
175,dingzhou,38.5131,114.9956,73.51,82,6,4.14,CN,1690044065
176,maqat,47.65,53.3167,91.17,26,73,18.43,KZ,1690044065
177,kharp,66.8014,65.8081,65.57,85,100,5.17,RU,1690044065
178,hermanus,-34.4187,19.2345,54.81,81,23,10.22,ZA,1690044065
179,nishinoomote,30.7333,131.0,79.84,85,100,3.89,JP,1690044065
180,yemetsk,63.4721,41.7941,58.73,85,99,4.07,RU,1690044065
181,long beach,33.767,-118.1892,78.42,89,100,4.61,US,1690043814
182,paita,-5.0892,-81.1144,75.94,67,2,9.46,PE,1690044066
183,xacmaz,41.4635,48.806,77.74,58,56,3.94,AZ,1690044066
184,iola,37.9245,-95.4,82.51,53,0,0.0,US,1690044066
185,lianzhou,24.7811,112.3825,78.84,93,35,3.44,CN,1690044066
186,khandyga,62.6667,135.6,52.25,95,2,1.34,RU,1690044066
187,kirakira,-10.4544,161.9205,77.56,89,100,4.79,SB,1690044067
188,kapa'a,22.0752,-159.319,77.32,89,100,16.11,US,1690044067
189,rijau,11.103,5.2507,85.1,61,77,3.78,NG,1690044067
190,inyonga,-6.7167,32.0667,71.4,34,1,4.56,TZ,1690044067
191,homer,59.6425,-151.5483,62.76,91,40,0.0,US,1690043804
192,puerto ayora,-0.7393,-90.3518,85.96,77,51,11.92,EC,1690044067
193,fray luis beltran,-39.3167,-65.7667,57.61,50,100,15.77,AR,1690044068
194,miami,25.7743,-80.1937,95.02,64,75,8.05,US,1690043447
195,karak city,31.1637,35.762,82.63,26,0,8.21,JO,1690044068
196,prince rupert,54.3161,-130.3201,58.69,100,100,10.36,CA,1690043989
197,kalmunai,7.4167,81.8167,83.03,57,92,8.16,LK,1690044068
198,bahia blanca,-38.7196,-62.2724,56.82,50,99,8.01,AR,1690044068
199,crane,31.3974,-102.3501,88.5,36,100,7.05,US,1690044068
200,isafjordur,66.0755,-23.124,51.84,71,100,4.61,IS,1690044069
201,sanctuary point,-35.1114,150.629,46.98,80,1,5.86,AU,1690044069
202,the pas,53.8251,-101.2541,68.02,68,0,5.75,CA,1690044069
203,sao joao da barra,-21.6403,-41.0511,73.49,69,6,9.28,BR,1690044069
204,pangody,65.85,74.4859,69.55,67,85,4.0,RU,1690044069
205,nemuro,43.3236,145.575,58.51,96,99,11.3,JP,1690044070
206,soustons,43.7533,-1.3278,84.18,87,0,8.93,FR,1690043994
207,karystos,38.0133,24.4161,96.33,46,0,3.42,GR,1690044070
208,seydi,39.4816,62.9137,92.93,16,0,17.49,TM,1690043994
209,mount pearl,47.5166,-52.7813,80.94,65,20,17.27,CA,1690044070
210,al ghayzah,16.2079,52.176,83.34,70,94,5.26,YE,1690044071
211,palmer,42.1584,-72.3287,80.24,56,40,5.75,US,1690044071
212,iquique,-20.2208,-70.1431,68.04,69,3,10.96,CL,1690044071
213,siverek,37.755,39.3167,93.67,12,0,4.23,TR,1690044071
214,papayal,-4.0761,-80.7361,86.94,46,69,5.77,PE,1690044072
215,koratla,18.8167,78.7167,74.93,90,90,10.45,IN,1690044072
216,pilar,-9.5972,-35.9567,80.53,87,52,11.36,BR,1690044072
217,kodiak,57.79,-152.4072,47.71,93,100,3.44,US,1690043966
218,cuyo,10.8525,121.0086,83.77,71,100,16.31,PH,1690044072
219,ca mau,9.1769,105.15,75.72,94,100,4.09,VN,1690044072
220,eraan,9.0629,117.7016,77.67,87,89,4.5,PH,1690044072
221,mossel bay,-34.1831,22.146,53.53,70,21,2.75,ZA,1690044073
222,chaihe,44.7667,129.7,66.67,90,100,4.81,CN,1690044073
223,zhangjiakou shi xuanhua qu,40.6103,115.0447,70.3,73,37,4.0,CN,1690044073
224,vila do maio,15.1333,-23.2167,88.59,74,72,14.23,CV,1690044073
225,rongelap,11.1635,166.8941,82.71,78,97,16.73,MH,1690044073
226,tarawa,1.419,172.984,78.89,94,100,2.3,KI,1690044073
227,longyearbyen,78.2186,15.6401,48.04,71,40,8.05,SJ,1690044074
228,uacu cungo,-11.3634,15.1208,79.14,25,47,2.82,AO,1690044074
229,touros,-5.1989,-35.4608,83.1,63,17,19.42,BR,1690044074
230,san patricio,28.017,-97.5169,96.08,38,2,1.99,US,1690044074
231,darab,28.7519,54.5444,98.76,9,78,2.57,IR,1690044074
232,tindouf,27.6711,-8.1474,113.45,5,2,6.91,DZ,1690044075
233,zagora,30.3484,-5.8365,106.77,6,12,8.41,MA,1690044075
234,santa luzia,-19.7697,-43.8514,72.68,48,20,11.5,BR,1690044075
235,okha,53.5739,142.9478,57.11,89,23,8.88,RU,1690044075
236,aswan,24.0934,32.907,105.1,8,0,11.5,EG,1690044075
237,purulha,15.2667,-90.2,68.16,68,91,2.62,GT,1690044075
238,saint-philippe,-21.3585,55.7679,69.39,84,68,16.08,RE,1690044076
239,gadzhiyevo,69.2551,33.3362,49.32,80,97,16.62,RU,1690044076
240,pacific grove,36.6177,-121.9166,59.11,86,40,8.99,US,1690044076
241,conselheiro lafaiete,-20.6603,-43.7861,69.96,49,69,7.65,BR,1690044076
242,torrijos,39.9819,-4.2835,94.84,14,78,10.47,ES,1690044076
243,molina,-35.1167,-71.2833,57.36,72,75,10.36,CL,1690044076
244,prior lake,44.7133,-93.4227,81.27,63,0,9.22,US,1690044077
245,salekhard,66.53,66.6019,65.7,87,100,10.87,RU,1690044077
246,fale old settlement,-9.3852,-171.2468,82.85,75,7,7.23,TK,1690044077
247,queenstown,-31.8976,26.8753,57.22,53,98,12.57,ZA,1690044032
248,hugo,45.16,-92.9933,83.25,60,40,9.22,US,1690044077
249,porus,18.0354,-77.4117,96.89,37,10,9.22,JM,1690044077
250,ofunato,39.0717,141.7167,69.98,94,79,4.59,JP,1690044078
251,acajutla,13.5928,-89.8275,88.79,60,100,6.87,SV,1690044078
252,stanley,54.868,-1.6985,60.78,100,100,8.05,GB,1690044078
253,tual,-5.6667,132.75,79.47,75,47,19.28,ID,1690044078
254,calama,-22.4667,-68.9333,73.89,5,0,5.75,CL,1690044078
255,port-vila,-17.7338,168.3219,67.6,88,75,2.3,VU,1690044078
256,hede,33.7681,120.2517,76.06,97,100,5.93,CN,1690044079
257,shirgaon,19.7,72.7,79.68,90,100,18.01,IN,1690044079
258,carutapera,-1.195,-46.02,85.66,59,42,9.19,BR,1690044079
259,coyhaique,-45.5752,-72.0662,39.15,60,75,4.61,CL,1690044079
260,kilindoni,-7.9139,39.6668,77.29,79,19,14.56,TZ,1690044079
261,polyarnyy,69.1989,33.4478,49.75,80,89,16.35,RU,1690044079
262,ma'rib,15.4591,45.3253,96.66,8,95,8.66,YE,1690044080
263,jimena de la frontera,36.4352,-5.4539,90.07,23,17,3.53,ES,1690044080
264,cockburn town,21.4612,-71.1419,83.34,74,71,11.14,TC,1690044042
265,salalah,17.0151,54.0924,78.89,94,100,8.05,OM,1690044081
266,waingapu,-9.6567,120.2641,72.41,80,76,11.12,ID,1690044082
267,ust-nera,64.5667,143.2,51.51,93,100,4.36,RU,1690044082
268,lompoc,34.6391,-120.4579,77.85,100,0,4.61,US,1690044082
269,umea,63.8284,20.2597,58.93,82,100,4.61,SE,1690044006
270,porto novo,6.4965,2.6036,76.82,78,69,11.54,BJ,1690044071
271,siocon,7.7061,122.1353,77.83,90,100,2.84,PH,1690044083
272,nuuk,64.1835,-51.7216,47.01,100,75,24.16,GL,1690044083
273,georgetown,5.4112,100.3354,84.13,86,20,3.44,MY,1690044083
274,morondava,-20.2833,44.2833,73.65,80,0,14.9,MG,1690044084
275,colares,38.7992,-9.4469,83.88,65,20,28.77,PT,1690044084
276,mata-utu,-13.2816,-176.1745,82.69,76,91,7.83,WF,1690044084
277,yemva,62.59,50.8594,58.64,88,21,4.76,RU,1690044084
278,hithadhoo,-0.6,73.0833,82.71,74,71,5.59,MV,1690044084
279,castillos,-34.1667,-53.8333,77.05,59,100,15.9,UY,1690044085
280,puerto armuelles,8.2833,-82.8667,87.78,77,99,1.1,PA,1690044085
281,punta umbria,37.1821,-6.9661,80.24,34,2,16.58,ES,1690044085
282,toppenish,46.3774,-120.3087,86.34,21,1,3.69,US,1690044085
283,mahina,-17.5065,-149.489,71.37,78,75,1.14,PF,1690044085
284,walvis bay,-22.9575,14.5053,63.55,63,0,4.61,NA,1690044086
285,sao jose da coroa grande,-8.8978,-35.1478,76.46,80,55,14.03,BR,1690044086
286,qandala,11.472,49.8728,92.77,50,52,14.58,SO,1690044086
287,grootfontein,-19.5667,18.1167,76.57,25,0,3.44,NA,1690044086
288,jayapura,-2.5333,140.7,78.19,88,55,1.3,ID,1690044086
289,pangkalanbuun,-2.6833,111.6167,73.62,97,50,1.95,ID,1690044087
290,moab,38.5733,-109.5498,95.49,20,0,3.49,US,1690044087
291,porto murtinho,-21.6989,-57.8825,94.69,19,0,17.34,BR,1690044087
292,jamaame,0.0697,42.745,76.62,84,99,10.63,SO,1690044087
293,kimbe,-5.5502,150.1429,74.86,88,75,5.82,PG,1690044088
294,mejit,10.2753,170.8646,82.29,77,95,16.89,MH,1690044088
295,miramar beach,30.3744,-86.3586,95.65,78,0,6.91,US,1690044088
296,nizhnesortymskiy,62.4397,71.7603,65.66,68,100,10.13,RU,1690044088
297,bartica,6.4,-58.6167,88.12,75,19,4.05,GY,1690044088
298,mulanje,-16.0316,35.5,63.19,80,57,4.76,MW,1690044088
299,enewetak,11.3474,162.3373,82.72,78,65,14.83,MH,1690044089
300,toba,34.4833,136.85,77.0,85,1,4.09,JP,1690044089
301,kirgiz-miyaki,53.6324,54.7979,60.57,80,76,3.29,RU,1690044089
302,prainha,-1.8,-53.48,91.89,35,18,4.7,BR,1690044089
303,rikaze,29.25,88.8833,63.75,42,100,6.98,CN,1690044089
304,novodvinsk,64.4165,40.8122,62.8,81,100,1.74,RU,1690044090
305,haapajarvi,63.75,25.3333,55.45,99,100,4.05,FI,1690044090
306,paradip garh,20.3167,86.6167,83.46,84,38,14.07,IN,1690044090
307,susanville,40.4163,-120.653,85.12,24,0,0.0,US,1690044060
308,kyshtovka,56.555,76.6271,60.94,86,99,8.68,RU,1690044090
309,geraldton,-28.7667,114.6,45.01,81,0,4.61,AU,1690044090
310,bosobolo,4.1833,19.9,78.64,78,88,4.76,CD,1690044091
311,mocorito,25.4833,-107.9167,94.21,40,90,2.71,MX,1690044091
312,obanazawa,38.6033,140.4019,69.12,98,85,2.89,JP,1690044091
313,east london,-33.0153,27.9116,68.94,45,0,9.22,ZA,1690044091
314,sumbawa besar,-8.5,117.4333,68.63,87,58,5.84,ID,1690044091
315,kenai,60.5544,-151.2583,59.14,89,0,10.36,US,1690044091
316,chui,-33.6971,-53.4616,74.12,65,100,15.03,UY,1690044011
317,vila franca do campo,37.7167,-25.4333,73.81,64,33,3.36,PT,1690044092
318,dryden,49.7833,-92.7503,70.09,73,40,5.75,CA,1690044092
319,egilsstadir,65.2653,-14.3948,57.11,67,75,6.91,IS,1690044092
320,antofagasta,-23.65,-70.4,65.48,69,70,11.61,CL,1690044092
321,ginir,7.1333,40.7,61.65,71,98,11.52,ET,1690044092
322,vershino-darasunskiy,52.35,115.5167,50.5,74,6,1.99,RU,1690044093
323,coahuayana de hidalgo,18.7,-103.6583,91.65,58,87,5.3,MX,1690044093
324,nelson bay,-32.7167,152.15,55.99,89,75,8.99,AU,1690044093
325,elverum,60.8819,11.5623,61.05,66,92,0.98,NO,1690044093
326,barakani,-12.1356,44.4317,76.55,70,54,11.5,KM,1690044093
327,bikenibeu village,1.3673,173.1241,78.76,94,100,2.3,KI,1690044094
328,arauquita,7.0292,-71.4281,83.39,68,99,0.67,CO,1690044094
329,cabedelo,-6.9811,-34.8339,83.07,73,19,17.78,BR,1690043853
330,tadine,-21.55,167.8833,65.77,67,2,9.57,NC,1690044094
331,broken hill,-31.95,141.4333,47.64,70,96,9.84,AU,1690044094
332,laguna,38.421,-121.4238,92.97,42,0,1.01,US,1690044094
333,sault ste. marie,46.5168,-84.3333,73.96,58,0,4.61,CA,1690044002
334,hadibu,12.65,54.0333,78.66,78,75,24.47,YE,1690044095
335,sao felix do xingu,-6.6447,-51.995,94.51,21,6,5.57,BR,1690044095
336,las tablas,7.7667,-80.2833,85.19,73,51,6.2,PA,1690044095
337,ancud,-41.8697,-73.8203,42.96,81,100,2.42,CL,1690044095
338,kismayo,-0.3582,42.5454,77.4,84,100,14.5,SO,1690044095
339,vuktyl,63.8567,57.3094,63.39,75,92,6.22,RU,1690044096
340,sisimiut,66.9395,-53.6735,42.94,98,100,13.85,GL,1690044096
341,barra do garcas,-15.89,-52.2567,88.38,35,40,9.22,BR,1690043905
342,khovd,48.0056,91.6419,66.67,49,35,5.12,MN,1690044096
343,pontianak,-0.0333,109.3333,78.78,88,20,3.44,ID,1690044096
344,kembe,4.6228,21.8865,72.14,87,79,2.71,CF,1690044097
345,aykhal,66.0,111.5,65.66,54,65,10.27,RU,1690044097
346,lomnice nad popelkou,50.5306,15.3734,71.02,63,98,2.62,CZ,1690044097
347,arraial do cabo,-22.9661,-42.0278,71.56,83,75,14.97,BR,1690044097
348,sao vicente,-23.9631,-46.3919,76.96,61,20,5.75,BR,1690044097
349,sebis,46.3667,22.1167,76.66,68,19,2.35,RO,1690044097
350,kolosovka,56.4678,73.611,67.5,62,100,8.46,RU,1690044098
351,batticaloa,7.7102,81.6924,82.8,62,96,10.18,LK,1690044098
352,naze,28.3667,129.4833,81.52,84,99,6.13,JP,1690044098
353,lower hutt,-41.2167,174.9167,49.91,94,75,18.41,NZ,1690044098
354,senillosa,-39.0,-68.4167,55.18,40,89,13.71,AR,1690044098
355,tazovsky,67.4667,78.7,57.0,97,86,8.34,RU,1690044098
356,hasaki,35.7333,140.8333,74.3,85,1,5.26,JP,1690044099
357,jilma,35.2731,9.4239,108.21,7,0,15.97,TN,1690044099
358,ghat,24.9647,10.1728,103.24,8,0,8.3,LY,1690044099
359,puerto baquerizo moreno,-0.9,-89.6,81.59,69,20,6.91,EC,1690044099
360,glace bay,46.1969,-59.957,76.08,96,100,14.97,CA,1690044100
361,maindargi,17.4667,76.3,75.25,84,100,16.13,IN,1690044100
362,severo-yeniseyskiy,60.3725,93.0408,65.03,71,99,3.51,RU,1690044100
363,hinton,53.4001,-117.5857,73.42,53,22,1.36,CA,1690043899
364,makarska,43.2969,17.0178,85.28,62,0,1.81,HR,1690044100
365,kurchatov,51.6601,35.6521,64.81,95,100,1.41,RU,1690044100
366,karratha,-20.7377,116.8463,64.11,21,2,18.48,AU,1690044101
367,tatishchevo,51.6703,45.5953,72.46,66,95,6.62,RU,1690044101
368,hilo,19.7297,-155.09,74.25,99,100,1.99,US,1690044098
369,sitka,57.0531,-135.33,58.89,82,100,0.0,US,1690043410
370,hastings,50.8552,0.5729,60.93,42,100,22.82,GB,1690044101
371,baiti,13.745,-14.7482,92.41,50,59,10.4,SN,1690044101
372,ogdensburg,44.6942,-75.4863,78.03,54,0,11.5,US,1690044102
373,codrington,-38.2667,141.9667,51.48,81,100,16.75,AU,1690044102
374,kailua-kona,19.6406,-155.9956,81.59,83,75,4.61,US,1690044102
375,trujillo,-8.116,-79.03,75.16,69,33,6.91,PE,1690044100
376,rada tilly,-45.9333,-67.5333,43.29,61,75,13.8,AR,1690044102
377,remire-montjoly,4.9167,-52.2667,80.64,89,75,4.61,GF,1690044103
378,carbonear,47.7332,-53.2148,82.24,85,71,11.48,CA,1690044103
379,pitimbu,-7.4706,-34.8086,82.99,76,14,16.42,BR,1690044103
380,silvania,-16.6589,-48.6081,80.64,32,0,10.89,BR,1690044103
381,vilyuchinsk,52.9306,158.4028,57.47,86,72,7.87,RU,1690044103
382,santa cruz,-17.8,-63.1667,86.05,51,20,28.77,BO,1690043838
383,springbok,-29.6643,17.8865,47.73,36,100,3.62,ZA,1690044105
384,kiunga,-6.1219,141.2906,72.64,97,100,2.35,PG,1690044105
385,kill devil hills,36.0307,-75.676,87.8,75,0,6.91,US,1690044084
386,maloye ganyushkino,46.6,49.2667,87.04,37,26,5.46,KZ,1690044106
387,rameswaram,9.2833,79.3,84.56,70,100,23.09,IN,1690044106
388,bryne,58.7354,5.6477,61.88,68,20,8.05,NO,1690044106
389,hammerfest,70.6634,23.6821,55.85,67,76,19.57,NO,1690044106
390,mili,6.0815,171.735,81.25,82,75,12.57,MH,1690044106
391,saint george's,12.0564,-61.7485,83.71,72,100,13.71,GD,1690044107
392,gereida,11.2811,25.1414,88.03,46,93,8.97,SD,1690044107
393,ustrzyki dolne,49.4304,22.5938,64.8,72,63,3.51,PL,1690044107
394,hotan,37.0997,79.9269,88.93,19,84,5.17,CN,1690044107
395,sidi khaled,34.387,4.9879,110.95,6,0,14.12,DZ,1690044107
396,dalbandin,28.8947,64.4101,95.95,18,99,9.28,PK,1690044108
397,pokhvistnevo,53.6524,52.1274,64.29,64,59,4.74,RU,1690044108
398,sur,22.5667,59.5289,87.76,62,100,12.3,OM,1690044108
399,bathsheba,13.2167,-59.5167,86.61,74,40,13.8,BB,1690044108
400,north bondi,-33.8824,151.2769,50.88,83,17,9.22,AU,1690044108
401,angaur state,6.906,134.13,81.88,79,79,10.22,PW,1690044109
402,morehead city,34.7229,-76.726,87.8,93,100,4.61,US,1690044109
403,brak,27.5496,14.2714,103.8,6,0,14.63,LY,1690044109
404,lukovit,43.2,24.1667,92.66,41,3,9.55,BG,1690044109
405,lagoa,39.05,-27.9833,70.66,76,27,2.28,PT,1690044109
406,lubango,-14.9172,13.4925,64.83,38,65,6.98,AO,1690044109
407,okhotsk,59.3833,143.3,56.48,97,99,0.94,RU,1690044110
408,saipan,15.1355,145.701,81.64,100,40,11.5,MP,1690044110
409,formosa do rio preto,-11.0483,-45.1931,80.24,44,70,10.38,BR,1690044110
410,yerofey pavlovich,53.9667,121.9667,58.26,78,99,3.78,RU,1690044110
411,sade,11.3595,10.6732,91.29,41,87,8.57,NG,1690044110
412,paoua,7.2427,16.4406,79.45,74,74,3.29,CF,1690044111
413,chuhar jamali,24.3895,67.9923,86.81,73,67,16.91,PK,1690044111
414,lillehammer,61.1146,10.4674,60.37,74,95,0.92,NO,1690044111
415,tazacorte,28.629,-17.9293,76.17,65,20,19.57,ES,1690044111
416,villazon,-22.0866,-65.5942,63.68,8,0,5.86,BO,1690044111
417,santa terezinha,-29.9002,-50.0904,69.98,73,94,10.49,BR,1690044111
418,garachico,28.7781,-17.7646,73.51,65,20,19.57,ES,1690044112
419,ataq,14.5377,46.8319,84.18,50,96,12.03,YE,1690044112
420,itigi,-5.7,34.4833,70.23,43,31,5.88,TZ,1690044112
421,sayaxche,16.5167,-90.1667,88.32,59,99,3.53,GT,1690044112
422,aiquile,-18.2041,-65.1807,80.22,20,0,5.48,BO,1690044112
423,quellon,-43.1167,-73.6167,46.65,66,20,5.75,CL,1690044112
424,indramayu,-6.3264,108.32,77.61,74,92,9.75,ID,1690044113
425,balabac,7.9868,117.0645,79.92,84,91,4.18,PH,1690044113
426,chepo,9.1667,-79.1,90.01,72,95,1.99,PA,1690044113
427,caleta olivia,-46.4393,-67.5281,37.8,86,100,14.12,AR,1690043923
428,porbandar,21.6422,69.6093,82.02,87,100,11.63,IN,1690044005
429,daru,-9.0763,143.2092,76.98,73,49,11.45,PG,1690044113
430,chinde,26.8418,88.0763,67.53,93,30,2.98,NP,1690044114
431,nakamura,32.9833,132.9333,74.23,97,12,2.44,JP,1690044114
432,fisterra,42.9049,-9.2629,74.75,70,88,19.1,ES,1690044114
433,bardai,11.65,7.2333,75.27,81,95,13.82,NG,1690044114
434,mizdah,31.4451,12.9801,101.95,8,0,11.68,LY,1690044114
435,arno,60.1167,18.6333,66.4,53,92,8.39,SE,1690044115
436,kosh-agach,50.0,88.6667,48.85,91,42,5.1,RU,1690044115
437,mwinilunga,-11.7358,24.4293,69.13,34,11,5.79,ZM,1690044115
438,aljezur,37.3191,-8.8033,71.22,71,6,14.47,PT,1690044115
439,bamboo flat,11.7,92.7167,78.73,84,100,11.03,IN,1690044115
440,necochea,-38.5473,-58.7368,51.82,87,99,9.4,AR,1690043983
441,isla mujeres,21.2311,-86.731,89.65,67,16,10.45,MX,1690044115
442,kolonia town,6.964,158.206,77.0,88,100,0.0,FM,1690044116
443,ilulissat,69.2167,-51.1,48.22,81,100,5.75,GL,1690044116
444,vadso,70.0744,29.7487,49.08,81,100,18.41,NO,1690044116
445,kuta,-8.7233,115.1723,78.75,73,20,14.0,ID,1690044116
446,richards bay,-28.783,32.0377,66.42,66,1,10.96,ZA,1690044117
447,luderitz,-26.6481,15.1594,57.09,62,96,8.63,NA,1690044117
448,battle creek,42.3212,-85.1797,80.92,50,0,6.91,US,1690044117
449,coronel suarez,-37.4547,-61.9334,61.23,39,64,13.49,AR,1690044117
450,tofol,5.3248,163.0078,82.04,77,100,8.37,FM,1690044117
451,duong dong,10.2167,103.9667,78.8,94,40,4.61,VN,1690044117
452,artesia,33.8658,-118.0831,83.17,86,100,4.61,US,1690044118
453,revda,56.801,59.9303,58.3,98,48,7.52,RU,1690044118
454,corner brook,48.9667,-57.9484,77.16,82,97,12.41,CA,1690043853
455,gonzalez,30.5816,-87.2914,96.03,65,0,10.36,US,1690044118
456,kapuskasing,49.4169,-82.4331,71.69,43,20,3.44,CA,1690044118
457,vrangel',42.7297,133.0839,65.25,99,76,3.33,RU,1690044118
458,bodaybo,57.8506,114.1933,61.68,78,12,1.88,RU,1690044118
459,aitape,-3.1374,142.3475,78.04,88,60,2.42,PG,1690044119
460,acapulco de juarez,16.8634,-99.8901,85.82,66,75,4.61,MX,1690043961
461,yanykurgan,43.915,67.2481,89.47,15,35,17.09,KZ,1690044119
462,chenaran,36.6455,59.1212,78.46,20,0,1.61,IR,1690044119
463,rio grande,-32.035,-52.0986,84.31,80,100,15.3,BR,1690043871
464,port blair,11.6667,92.75,78.78,84,100,10.94,IN,1690044120
465,geneva,41.8875,-88.3054,83.79,54,0,8.05,US,1690044120
466,vanimo,-2.6741,141.3028,78.01,87,73,1.05,PG,1690044120
467,zabol,32.25,67.25,82.29,28,7,13.62,AF,1690044120
468,dwarka,22.2394,68.9678,82.81,86,100,12.08,IN,1690044120
469,kayangel,8.0823,134.7173,82.22,79,100,10.33,PW,1690044121
470,shimoda,34.6667,138.95,74.1,89,2,6.96,JP,1690044121
471,pamandzi,-12.7967,45.2794,76.78,73,0,9.22,YT,1690044121
472,luwuk,-0.9516,122.7875,74.98,86,72,4.92,ID,1690044121
473,chesterton,41.6106,-87.0642,81.9,56,0,8.05,US,1690044121
474,gokarna,14.55,74.3167,79.12,90,100,16.73,IN,1690044122
475,neryungri,56.6709,124.6491,54.52,87,11,1.77,RU,1690044122
476,laem sing,12.4816,102.0738,78.12,92,100,3.24,TH,1690044122
477,natal,-5.795,-35.2094,86.65,54,20,20.71,BR,1690044071
478,almeirim,-1.5233,-52.5817,91.99,38,27,3.94,BR,1690044076
479,al jawf,29.5,38.75,96.03,10,3,9.46,SA,1690044123
480,campos gerais,-21.235,-45.7586,75.0,39,0,5.46,BR,1690044123
481,zhangye,38.9342,100.4517,76.96,28,7,4.54,CN,1690043937
482,khabary,53.6259,79.5345,61.3,83,100,10.36,RU,1690044123
483,atar,20.5169,-13.0499,108.46,13,1,12.44,MR,1690044123
484,mormugao,15.4,73.8,78.62,89,100,19.8,IN,1690044123
485,kuchaiburi,22.2667,86.1667,78.33,93,82,5.32,IN,1690044124
486,barika,35.389,5.3658,106.02,6,0,19.26,DZ,1690044124
487,neyriz,29.1988,54.3278,93.49,10,78,21.56,IR,1690044124
488,el alto,-4.2714,-81.2147,78.46,63,40,12.88,PE,1690044124
489,cam ranh,11.9214,109.1591,82.36,83,75,1.14,VN,1690044125
490,fort bragg,35.139,-79.006,85.82,62,100,6.91,US,1690044125
491,amurzet,47.6967,131.0981,67.84,83,100,6.02,RU,1690044125
492,collie,-33.3667,116.15,44.64,96,0,2.98,AU,1690044125
493,key west,24.5557,-81.7826,91.4,66,0,9.22,US,1690043894
494,chernyshevskiy,63.0128,112.4714,64.17,65,30,2.3,RU,1690044125
495,ixtapa,20.7,-105.2,91.22,70,75,9.22,MX,1690044126
496,callao,-12.0667,-77.15,77.72,64,100,6.91,PE,1690044126
497,santo antonio do leverger,-15.8656,-56.0767,89.98,16,0,11.3,BR,1690044126
498,ulladulla,-35.35,150.4667,45.7,79,1,5.37,AU,1690044127
499,nizao,18.25,-70.2,88.47,55,30,11.63,DO,1690044127
500,tanout,14.9709,8.8879,95.85,29,47,2.8,NE,1690044127
501,yeppoon,-23.1333,150.7333,47.98,60,0,8.21,AU,1690044127
502,priozersk,61.0393,30.1291,66.09,45,100,5.23,RU,1690044128
503,paso de los toros,-32.8167,-56.5167,78.96,56,100,24.29,UY,1690044003
504,waspan,14.7419,-83.9717,83.84,77,99,8.34,NI,1690044128
505,lata,40.1629,-8.3327,74.07,47,0,10.98,PT,1690044128
506,suez,29.9737,32.5263,92.46,23,0,15.01,EG,1690044128
507,sidrolandia,-20.9319,-54.9614,85.84,30,0,13.2,BR,1690044129
508,indre arna,60.4247,5.4764,62.89,77,93,2.95,NO,1690044129
509,santiago de chuco,-8.15,-78.1833,67.12,21,0,4.52,PE,1690044129
510,bria,6.5423,21.9863,70.47,96,86,3.31,CF,1690044129
511,lazaro cardenas,17.9583,-102.2,83.46,66,100,5.44,MX,1690044130
512,"laikit, laikit ii (dimembe)",1.4792,124.9735,72.45,94,40,2.3,ID,1690044130
513,petropavlovka,50.6114,105.3196,57.81,84,62,2.48,RU,1690044130
514,galle,6.0367,80.217,80.19,88,79,12.48,LK,1690044130
515,kroonstad,-27.6504,27.2349,55.85,38,12,3.83,ZA,1690044130
516,vega de alatorre,20.0333,-96.6333,88.65,59,65,6.4,MX,1690044131
517,bargarh,21.3333,83.6167,80.08,89,100,8.93,IN,1690044131
518,island harbour,50.724,-1.2758,62.15,92,100,11.01,GB,1690044131
519,vorgashor,67.5833,63.95,64.2,87,100,5.84,RU,1690044131
520,howrah,22.5892,88.3103,82.4,94,20,5.75,IN,1690044131
521,nova vicosa,-17.8919,-39.3719,74.88,73,42,9.89,BR,1690044131
522,sao tome,0.3365,6.7273,75.67,76,61,9.93,ST,1690044132
523,al jabin,14.704,43.599,70.88,49,39,7.38,YE,1690044132
524,rabaul,-4.1967,152.1721,78.78,83,86,12.1,PG,1690044132
525,oum el bouaghi,35.8754,7.1135,100.8,8,8,18.21,DZ,1690044132
526,yaren,-0.5472,166.916,82.56,76,100,10.92,NR,1690044132
527,charters towers,-20.1,146.2667,58.1,46,9,6.17,AU,1690044132
528,antsiranana,-12.2787,49.2917,74.32,72,18,17.92,MG,1690044133
529,mount isa,-20.7333,139.5,51.57,54,0,12.66,AU,1690044133
530,klaksvik,62.2266,-6.589,52.72,82,16,10.83,FO,1690044133
531,madang,-5.2246,145.7966,77.92,91,85,2.08,PG,1690044133
532,amherstburg,42.1168,-83.0499,82.45,47,40,5.75,CA,1690044133
533,manay,7.215,126.5397,78.94,84,100,2.77,PH,1690044134
534,jeddah,21.5169,39.2192,100.26,23,0,14.97,SA,1690043930
535,sao miguel do araguaia,-13.275,-50.1628,91.44,25,1,9.6,BR,1690044134
536,sandnessjoen,66.0217,12.6316,61.32,82,75,3.44,NO,1690044134
537,minas de marcona,-15.2119,-75.1103,62.74,64,33,14.14,PE,1690044134
538,nova xavantina,-14.6667,-52.35,91.15,25,0,7.36,BR,1690044134
539,worthington,40.0931,-83.018,81.88,48,0,5.75,US,1690044135
540,zelenoborskiy,66.845,32.3622,51.66,87,100,5.66,RU,1690044135
541,la ronge,55.1001,-105.2842,64.65,68,75,10.36,CA,1690044135
542,ascoli piceno,42.8548,13.5749,89.02,66,37,3.0,IT,1690044135
543,haiku-pauwela,20.9219,-156.3051,77.04,87,40,13.8,US,1690044135
544,mukalla,14.5425,49.1242,92.71,46,41,12.03,YE,1690044135
545,regina,50.4501,-104.6178,76.98,51,75,5.75,CA,1690043593
546,banda aceh,5.5577,95.3222,81.25,72,100,12.93,ID,1690044136
547,macusani,-14.0833,-70.4333,52.92,18,0,2.04,PE,1690044136
548,darwin,-12.4611,130.8418,73.38,83,75,4.61,AU,1690043994
549,lincheng,19.9078,109.6858,79.45,89,3,8.39,CN,1690044136
550,simpang,-1.2667,104.0833,75.09,95,59,2.51,ID,1690044137
551,el porvenir,13.7617,-87.3458,81.73,46,99,2.64,HN,1690044137
552,guerrero negro,27.9769,-114.0611,73.85,62,7,12.08,MX,1690044137
553,agartala,23.8364,91.275,81.07,90,99,6.62,IN,1690044137
554,santa fe,-31.6333,-60.7,86.29,46,14,27.0,AR,1690044045
555,cole harbour,44.6724,-63.4751,71.19,96,100,13.8,CA,1690044138
556,camiri,-20.05,-63.5167,83.98,37,0,11.5,BO,1690044138
557,sakakah,29.9697,40.2064,105.37,9,4,5.7,SA,1690044138
558,westerland,54.9079,8.3033,59.02,77,20,8.05,DE,1690044138
559,pimentel,-6.8367,-79.9342,75.49,69,75,13.8,PE,1690044138
560,qarauyl,48.9451,79.255,68.77,36,0,5.3,KZ,1690044138
561,qamdo,31.1667,97.2333,46.15,64,59,3.24,CN,1690044139
562,new norfolk,-42.7826,147.0587,49.91,95,85,2.66,AU,1690044139
563,zykovo,55.9519,93.1461,65.14,68,62,2.19,RU,1690044139
564,ban dan lan hoi,17.0068,99.575,79.95,86,61,2.51,TH,1690044139
565,patacamaya,-17.2333,-67.9167,58.95,14,0,1.25,BO,1690044140
566,mar del plata,-38.0023,-57.5575,54.95,95,75,11.5,AR,1690043880
567,puerto leguizamo,-0.1934,-74.7819,73.22,93,100,2.08,CO,1690044140
568,bandon,51.7469,-8.7425,65.79,89,99,11.77,IE,1690044140
569,fortuna,40.5982,-124.1573,59.99,86,0,3.44,US,1690044140
570,evanston,42.0411,-87.6901,84.96,46,20,8.05,US,1690044141
571,ternate,0.8,127.4,80.51,80,100,7.58,ID,1690044141
